[
  {"district":"Taplejung","province":"Koshi","hq":"Taplejung","lat":27.3540,"lng":87.6680},
  {"district":"Panchthar","province":"Koshi","hq":"Phidim","lat":27.1460,"lng":87.7650},
  {"district":"Ilam","province":"Koshi","hq":"Ilam","lat":26.9110,"lng":87.9280},
  {"district":"Jhapa","province":"Koshi","hq":"Bhadrapur","lat":26.5440,"lng":88.0940},
  {"district":"Morang","province":"Koshi","hq":"Biratnagar","lat":26.4525,"lng":87.2718},
  {"district":"Sunsari","province":"Koshi","hq":"Inaruwa","lat":26.6060,"lng":87.1470},
  {"district":"Dhankuta","province":"Koshi","hq":"Dhankuta","lat":26.9830,"lng":87.3330},
  {"district":"Terhathum","province":"Koshi","hq":"Myanglung","lat":27.1250,"lng":87.5500},
  {"district":"Bhojpur","province":"Koshi","hq":"Bhojpur","lat":27.1710,"lng":87.0460},
  {"district":"Sankhuwasabha","province":"Koshi","hq":"Khandbari","lat":27.3740,"lng":87.2070},
  {"district":"Solukhumbu","province":"Koshi","hq":"Salleri","lat":27.3120,"lng":86.7330},
  {"district":"Okhaldhunga","province":"Koshi","hq":"Siddhicharan","lat":27.3170,"lng":86.5000},
  {"district":"Khotang","province":"Koshi","hq":"Diktel","lat":27.2030,"lng":86.7900},
  {"district":"Udayapur","province":"Koshi","hq":"Gaighat","lat":26.8000,"lng":86.7000},

  {"district":"Saptari","province":"Madhesh","hq":"Rajbiraj","lat":26.5390,"lng":86.7470},
  {"district":"Siraha","province":"Madhesh","hq":"Siraha","lat":26.6600,"lng":86.2100},
  {"district":"Dhanusha","province":"Madhesh","hq":"Janakpur","lat":26.7288,"lng":85.9260},
  {"district":"Mahottari","province":"Madhesh","hq":"Jaleshwar","lat":26.6480,"lng":85.8000},
  {"district":"Sarlahi","province":"Madhesh","hq":"Malangwa","lat":26.8560,"lng":85.5600},
  {"district":"Rautahat","province":"Madhesh","hq":"Gaur","lat":26.7640,"lng":85.2780},
  {"district":"Bara","province":"Madhesh","hq":"Kalaiya","lat":27.0230,"lng":84.8770},
  {"district":"Parsa","province":"Madhesh","hq":"Birgunj","lat":27.0104,"lng":84.8770},

  {"district":"Dolakha","province":"Bagmati","hq":"Charikot","lat":27.6680,"lng":86.0320},
  {"district":"Sindhupalchok","province":"Bagmati","hq":"Chautara","lat":27.8000,"lng":85.7000},
  {"district":"Rasuwa","province":"Bagmati","hq":"Dhunche","lat":28.1000,"lng":85.3000},
  {"district":"Dhading","province":"Bagmati","hq":"Dhadingbesi","lat":27.8660,"lng":84.9160},
  {"district":"Nuwakot","province":"Bagmati","hq":"Bidur","lat":27.9000,"lng":85.1500},
  {"district":"Kathmandu","province":"Bagmati","hq":"Kathmandu","lat":27.7172,"lng":85.3240},
  {"district":"Bhaktapur","province":"Bagmati","hq":"Bhaktapur","lat":27.6710,"lng":85.4298},
  {"district":"Lalitpur","province":"Bagmati","hq":"Patan","lat":27.6644,"lng":85.3188},
  {"district":"Kavrepalanchok","province":"Bagmati","hq":"Dhulikhel","lat":27.6221,"lng":85.5428},
  {"district":"Ramechhap","province":"Bagmati","hq":"Manthali","lat":27.3260,"lng":86.0870},
  {"district":"Sindhuli","province":"Bagmati","hq":"Sindhulimadhi","lat":27.2500,"lng":85.9660},
  {"district":"Makwanpur","province":"Bagmati","hq":"Hetauda","lat":27.4284,"lng":85.0322},
  {"district":"Chitwan","province":"Bagmati","hq":"Bharatpur","lat":27.6833,"lng":84.4333},

  {"district":"Gorkha","province":"Gandaki","hq":"Gorkha","lat":28.0000,"lng":84.6330},
  {"district":"Lamjung","province":"Gandaki","hq":"Besisahar","lat":28.2330,"lng":84.3830},
  {"district":"Tanahun","province":"Gandaki","hq":"Damauli","lat":27.9830,"lng":84.2660},
  {"district":"Kaski","province":"Gandaki","hq":"Pokhara","lat":28.2096,"lng":83.9856},
  {"district":"Syangja","province":"Gandaki","hq":"Putalibazar","lat":28.0830,"lng":83.8660},
  {"district":"Parbat","province":"Gandaki","hq":"Kusma","lat":28.2330,"lng":83.6830},
  {"district":"Baglung","province":"Gandaki","hq":"Baglung","lat":28.2710,"lng":83.5890},
  {"district":"Myagdi","province":"Gandaki","hq":"Beni","lat":28.3500,"lng":83.5660},
  {"district":"Mustang","province":"Gandaki","hq":"Jomsom","lat":28.7830,"lng":83.7330},
  {"district":"Manang","province":"Gandaki","hq":"Chame","lat":28.6670,"lng":84.0160},
  {"district":"Nawalpur","province":"Gandaki","hq":"Kawasoti","lat":27.6500,"lng":84.1330},

  {"district":"Rupandehi","province":"Lumbini","hq":"Siddharthanagar","lat":27.5050,"lng":83.4500},
  {"district":"Kapilvastu","province":"Lumbini","hq":"Taulihawa","lat":27.5330,"lng":83.0500},
  {"district":"Arghakhanchi","province":"Lumbini","hq":"Sandhikharka","lat":27.9500,"lng":83.2000},
  {"district":"Gulmi","province":"Lumbini","hq":"Tamghas","lat":28.0830,"lng":83.2500},
  {"district":"Palpa","province":"Lumbini","hq":"Tansen","lat":27.8660,"lng":83.5500},
  {"district":"Nawalparasi West","province":"Lumbini","hq":"Parasi","lat":27.5160,"lng":83.7500},
  {"district":"Dang","province":"Lumbini","hq":"Ghorahi","lat":28.0300,"lng":82.4800},
  {"district":"Pyuthan","province":"Lumbini","hq":"Pyuthan","lat":28.1000,"lng":82.8660},
  {"district":"Rolpa","province":"Lumbini","hq":"Liwang","lat":28.3000,"lng":82.5000},
  {"district":"Eastern Rukum","province":"Lumbini","hq":"Rukumkot","lat":28.6000,"lng":82.6000},
  {"district":"Banke","province":"Lumbini","hq":"Nepalgunj","lat":28.0500,"lng":81.6167},
  {"district":"Bardiya","province":"Lumbini","hq":"Gulariya","lat":28.3000,"lng":81.3660},

  {"district":"Dolpa","province":"Karnali","hq":"Dunai","lat":29.0000,"lng":82.8000},
  {"district":"Mugu","province":"Karnali","hq":"Gamgadhi","lat":29.5500,"lng":82.1830},
  {"district":"Humla","province":"Karnali","hq":"Simikot","lat":29.9660,"lng":81.8330},
  {"district":"Jumla","province":"Karnali","hq":"Jumla","lat":29.2740,"lng":82.1830},
  {"district":"Kalikot","province":"Karnali","hq":"Manma","lat":29.2000,"lng":81.7000},
  {"district":"Dailekh","province":"Karnali","hq":"Narayan","lat":28.8330,"lng":81.6000},
  {"district":"Jajarkot","province":"Karnali","hq":"Khalanga","lat":28.7000,"lng":82.2330},
  {"district":"Rukum West","province":"Karnali","hq":"Musikot","lat":28.6330,"lng":82.5330},
  {"district":"Salyan","province":"Karnali","hq":"Salyan Khalanga","lat":28.3830,"lng":82.1830},
  {"district":"Surkhet","province":"Karnali","hq":"Birendranagar","lat":28.6000,"lng":81.6330},

  {"district":"Bajura","province":"Sudurpashchim","hq":"Martadi","lat":29.5000,"lng":81.5000},
  {"district":"Bajhang","province":"Sudurpashchim","hq":"Chainpur","lat":29.5330,"lng":81.2160},
  {"district":"Darchula","province":"Sudurpashchim","hq":"Darchula","lat":29.8500,"lng":80.5500},
  {"district":"Baitadi","province":"Sudurpashchim","hq":"Dasharathchand","lat":29.5330,"lng":80.4330},
  {"district":"Dadeldhura","province":"Sudurpashchim","hq":"Dadeldhura","lat":29.3000,"lng":80.5830},
  {"district":"Doti","province":"Sudurpashchim","hq":"Dipayal","lat":29.2660,"lng":80.9330},
  {"district":"Achham","province":"Sudurpashchim","hq":"Mangalsen","lat":29.1000,"lng":81.3000},
  {"district":"Kailali","province":"Sudurpashchim","hq":"Dhangadhi","lat":28.7000,"lng":80.6000},
  {"district":"Kanchanpur","province":"Sudurpashchim","hq":"Mahendranagar","lat":28.9630,"lng":80.1770}
]
